{"results":[{"type":"POI","dist":4225.412374672882,"poi":{"name":"Stay Tuned Bikes"},"position":{"lat":47.61999,"lon":-122.179},"viewport":{"topLeftPoint":{"lat":47.62089,"lon":-122.18033},"btmRightPoint":{"lat":47.61909,"lon":-122.17767}}}]}











{"summary":{"query":"unsw","queryType":"NON_NEAR","queryTime":8,"numResults":10,"offset":0,"totalResults":76,"fuzzyLevel":2},"results":[{"type":"Geography","id":"AU/GEO/p0/4","score":1.867,"entityType":"CountrySubdivision","address":{"countrySubdivision":"New South Wales","countryCode":"AU","country":"Australia","countryCodeISO3":"AUS","freeformAddress":"New South Wales"},"position":{"lat":-32.83061,"lon":150.05237},"viewport":{"topLeftPoint":{"lat":-28.15619,"lon":140.99921},"btmRightPoint":{"lat":-37.50503,"lon":159.10552}},"boundingBox":{"topLeftPoint":{"lat":-28.15619,"lon":140.99921},"btmRightPoint":{"lat":-37.50503,"lon":159.10552}},"dataSources":{"geometry":{"id":"00005831-3200-1200-0000-000077379ae3"}}},{"type":"Geography","id":"GB/GEO/p0/5378","score":1.688,"info":"search:ta:826013005025902-GB","entityType":"MunicipalitySubdivision","address":{"municipalitySubdivision":"Unst","municipality":"Shetland Islands, Shetland","countrySecondarySubdivision":"Shetland Islands","countrySubdivision":"SCT","countryCode":"GB","country":"United Kingdom","countryCodeISO3":"GBR","freeformAddress":"Shetland Islands (Unst)","countrySubdivisionName":"Scotland"},"position":{"lat":60.7592,"lon":-0.88291},"viewport":{"topLeftPoint":{"lat":60.86165,"lon":-0.97801},"btmRightPoint":{"lat":60.63357,"lon":-0.75572}},"boundingBox":{"topLeftPoint":{"lat":60.86165,"lon":-0.97801},"btmRightPoint":{"lat":60.63357,"lon":-0.75572}},"dataSources":{"geometry":{"id":"00004732-3100-3c00-0000-000065a04615"}}},{"type":"Geography","id":"ID/GEO/p0/35449","score":1.6,"info":"search:ta:360013020093520-ID","entityType":"MunicipalitySubdivision","address":{"municipalitySubdivision":"Urang Unsa","municipality":"Kapuas Hulu, Hulu Kapuas","countrySecondarySubdivision":"Kapuas Hulu","countrySubdivision":"Kalimantan Barat","countryCode":"ID","country":"Indonesia","countryCodeISO3":"IDN","freeformAddress":"Kapuas Hulu, Kalimantan Barat"},"position":{"lat":0.81122,"lon":113.07474},"viewport":{"topLeftPoint":{"lat":0.95206,"lon":112.93969},"btmRightPoint":{"lat":0.53021,"lon":113.14584}},"boundingBox":{"topLeftPoint":{"lat":0.95206,"lon":112.93969},"btmRightPoint":{"lat":0.53021,"lon":113.14584}},"dataSources":{"geometry":{"id":"00004944-3500-3c00-0000-00002540d348"}}},{"type":"Street","id":"AR/STR/p0/57579","score":1.5,"address":{"streetName":"Camino Interno Unse","municipalitySubdivision":"Santiago del Estero","municipality":"Santiago del Estero","countrySubdivision":"Santiago del Estero","countryCode":"AR","country":"Argentina","countryCodeISO3":"ARG","freeformAddress":"Camino Interno Unse, Santiago del Estero, Santiago del Estero"},"position":{"lat":-27.76078,"lon":-64.27926},"viewport":{"topLeftPoint":{"lat":-27.76118,"lon":-64.27895},"btmRightPoint":{"lat":-27.76014,"lon":-64.28011}}},{"type":"Street","id":"ES/STR/p0/43689","score":1.5,"address":{"streetName":"Urbanización Nuevo San García I","municipalitySubdivision":"San García","municipality":"Algeciras","countrySecondarySubdivision":"Cádiz","countrySubdivision":"Andalucía","postalCode":"11207","countryCode":"ES","country":"Spain","countryCodeISO3":"ESP","freeformAddress":"Urbanización Nuevo San García I, 11207 Algeciras (San García)"},"position":{"lat":36.10332,"lon":-5.44702},"viewport":{"topLeftPoint":{"lat":36.10283,"lon":-5.44473},"btmRightPoint":{"lat":36.104,"lon":-5.44922}}},{"type":"Street","id":"ES/STR/p0/52842","score":1.5,"address":{"streetName":"Urbanización Nuestra Señora del Loreto","municipalitySubdivision":"Villanueva del Ariscal","municipality":"Espartinas","countrySecondarySubdivision":"Sevilla","countrySubdivision":"Andalucía","postalCode":"41807","countryCode":"ES","country":"Spain","countryCodeISO3":"ESP","freeformAddress":"Urbanización Nuestra Señora del Loreto, 41807 Espartinas (Villanueva del Ariscal)"},"position":{"lat":37.39092,"lon":-6.14135},"viewport":{"topLeftPoint":{"lat":37.38941,"lon":-6.14015},"btmRightPoint":{"lat":37.39213,"lon":-6.14195}}},{"type":"Street","id":"ES/STR/p0/56153","score":1.5,"address":{"streetName":"Urbanización Nuestra Señora del Prado","municipalitySubdivision":"Villanueva del Ariscal","municipality":"Espartinas","countrySecondarySubdivision":"Sevilla","countrySubdivision":"Andalucía","postalCode":"41807","countryCode":"ES","country":"Spain","countryCodeISO3":"ESP","freeformAddress":"Urbanización Nuestra Señora del Prado, 41807 Espartinas (Villanueva del Ariscal)"},"position":{"lat":37.39325,"lon":-6.13329},"viewport":{"topLeftPoint":{"lat":37.39311,"lon":-6.13224},"btmRightPoint":{"lat":37.39328,"lon":-6.13442}}},{"type":"Street","id":"ES/STR/p0/1321877","score":1.5,"address":{"streetName":"Urbanización Nuestra Señora de Candelaria","municipalitySubdivision":"Tijarafe","municipality":"Tijarafe","countrySecondarySubdivision":"Santa Cruz de Tenerife","countrySubdivision":"Islas Canarias","postalCode":"38780","countryCode":"ES","country":"Spain","countryCodeISO3":"ESP","freeformAddress":"Urbanización Nuestra Señora de Candelaria, 38780 Tijarafe"},"position":{"lat":28.71403,"lon":-17.95561},"viewport":{"topLeftPoint":{"lat":28.7134,"lon":-17.95517},"btmRightPoint":{"lat":28.71407,"lon":-17.95608}}},{"type":"Street","id":"ES/STR/p0/1024257","score":1.5,"address":{"streetName":"Urbanización Nuestra Señora de Belén","municipalitySubdivision":"La Coruña, A Coruña","municipality":"A Coruña","countrySecondarySubdivision":"La Coruña, A Coruña","countrySubdivision":"Galicia","postalCode":"15009","countryCode":"ES","country":"Spain","countryCodeISO3":"ESP","freeformAddress":"Urbanización Nuestra Señora de Belén, 15009 A Coruña (La Coruña)"},"position":{"lat":43.34079,"lon":-8.39143},"viewport":{"topLeftPoint":{"lat":43.34079,"lon":-8.39118},"btmRightPoint":{"lat":43.34084,"lon":-8.39163}}},{"type":"Street","id":"GB/STR/p0/1604269","score":1.5,"address":{"streetName":"Unst Lane","municipalitySubdivision":"Cambuslang","municipality":"South Lanarkshire, Glasgow","countrySecondarySubdivision":"South Lanarkshire, Lanarkshire","countrySubdivision":"SCT","postalCode":"G72","extendedPostalCode":"G72 8PY","countryCode":"GB","country":"United Kingdom","countryCodeISO3":"GBR","freeformAddress":"Unst Lane, South Lanarkshire (Cambuslang), G72 8PY","countrySubdivisionName":"Scotland"},"position":{"lat":55.80422,"lon":-4.18082},"viewport":{"topLeftPoint":{"lat":55.80407,"lon":-4.18072},"btmRightPoint":{"lat":55.80442,"lon":-4.18111}}}]}